{
"type": "FeatureCollection",
"name": "four",
"crs": { "type": "name", "properties": { "name": "urn:ogc:def:crs:OGC:1.3:CRS84" } },
"features": [
{ "type": "Feature", "properties": { "fid": 1, "id": 0, "price": 81062, "description": "Lorem ipsum dolor sit amet, consectetur adipiscing elit, sed do eiusmod tempor incididunt ut labore et dolore magna a", "title": " tempor incididunt ut lab", "image": "photo1.jpg", "color": "yellow" }, "geometry": { "type": "Point", "coordinates": [ -77.129961, 38.887739 ] } },
{ "type": "Feature", "properties": { "fid": 2, "id": 1, "price": 79119, "description": "Lorem ipsum dolor sit amet, consectetur adipiscing elit, sed do eiusmod tempor incididunt ut labore et dolore magna aliqua. Ut enim ad mi", "title": ", sed do eiusmod tempor inc", "image": "photo1.jpg", "color": "red" }, "geometry": { "type": "Point", "coordinates": [ -77.091756, 38.884572 ] } },
{ "type": "Feature", "properties": { "fid": 3, "id": 2, "price": 56085, "description": "Lorem ipsum dolor sit amet, consectetur adipiscing elit, sed do eiusmod tempor incididunt ut labore et", "title": "met, consectetur adipiscing el", "image": "photo1.jpg", "color": "yellow" }, "geometry": { "type": "Point", "coordinates": [ -77.122969, 38.89511 ] } },
{ "type": "Feature", "properties": { "fid": 4, "id": 3, "price": 52914, "description": "Lorem ipsum dolor sit amet, consectetur adipiscing elit, sed do eiusmod tempor incididunt ut labore et dolore magna aliqua. Ut enim ad minim veni", "title": "ipiscing elit, sed d", "image": "photo2.jpg", "color": "blue" }, "geometry": { "type": "Point", "coordinates": [ -77.121116, 38.881682 ] } },
{ "type": "Feature", "properties": { "fid": 5, "id": 4, "price": 57183, "description": "Lorem ipsum dolor sit amet, consectetur adipiscing elit, sed do eiusmod tempor incididunt ut labore et dolore magna aliqua. Ut ", "title": "ctetur adipiscing elit, sed d", "image": "photo1.jpg", "color": "red" }, "geometry": { "type": "Point", "coordinates": [ -77.116579, 38.901817 ] } },
{ "type": "Feature", "properties": { "fid": 6, "id": 5, "price": 70764, "description": "Lorem ipsum dolor sit amet, consectetur adipiscing elit, sed do eiusmod tempor incididunt ut labore et dolore magna aliqua. Ut enim a", "title": "e et dolore magna aliqua", "image": "photo1.jpg", "color": "red" }, "geometry": { "type": "Point", "coordinates": [ -77.122115, 38.89135 ] } },
{ "type": "Feature", "properties": { "fid": 7, "id": 6, "price": 73286, "description": "Lorem ipsum dolor sit amet, consectetur adipiscing elit, sed do eiusmod tempor incididunt ut labore et dolore magna aliqua. ", "title": "m dolor sit amet, con", "image": "photo1.jpg", "color": "yellow" }, "geometry": { "type": "Point", "coordinates": [ -77.097034, 38.897023 ] } },
{ "type": "Feature", "properties": { "fid": 8, "id": 7, "price": 93946, "description": "Lorem ipsum dolor sit amet, consectetur adipiscing elit, sed do eiusmod tempor incididunt ut labore et dolore m", "title": "r sit amet, consectet", "image": "photo2.jpg", "color": "blue" }, "geometry": { "type": "Point", "coordinates": [ -77.095906, 38.881574 ] } },
{ "type": "Feature", "properties": { "fid": 9, "id": 8, "price": 95214, "description": "Lorem ipsum dolor sit amet, consectetur adipiscing elit, sed do eiusmod tempor incididunt ut labore et dolore magna aliq", "title": "lit, sed do eiusmod t", "image": "photo1.jpg", "color": "blue" }, "geometry": { "type": "Point", "coordinates": [ -77.104312, 38.883086 ] } },
{ "type": "Feature", "properties": { "fid": 10, "id": 9, "price": 56019, "description": "Lorem ipsum dolor sit amet, consectetur adipiscing elit, sed do eiusmod tempor incididunt ut labore et dolore magna aliqua. ", "title": "iscing elit, sed do e", "image": "photo2.jpg", "color": "yellow" }, "geometry": { "type": "Point", "coordinates": [ -77.131985, 38.889665 ] } },
{ "type": "Feature", "properties": { "fid": 11, "id": 10, "price": 85814, "description": "Lorem ipsum dolor sit amet, consectetur adipiscing elit, sed do eiusmod tempor incididunt ut labore et dolor", "title": "it amet, consectetur adipi", "image": "photo3.jpg", "color": "red" }, "geometry": { "type": "Point", "coordinates": [ -77.12421, 38.893948 ] } },
{ "type": "Feature", "properties": { "fid": 12, "id": 11, "price": 79169, "description": "Lorem ipsum dolor sit amet, consectetur adipiscing elit, sed do eiusmod tempor incididunt ut labore et dolore magna aliqu", "title": "t labore et dolore magna", "image": "photo1.jpg", "color": "blue" }, "geometry": { "type": "Point", "coordinates": [ -77.113925, 38.895677 ] } },
{ "type": "Feature", "properties": { "fid": 13, "id": 12, "price": 50824, "description": "Lorem ipsum dolor sit amet, consectetur adipiscing elit, sed do eiusmod tempor incididunt ut labore et dolore magna aliq", "title": "ctetur adipiscing elit, sed do", "image": "photo3.jpg", "color": "blue" }, "geometry": { "type": "Point", "coordinates": [ -77.100912, 38.882674 ] } },
{ "type": "Feature", "properties": { "fid": 14, "id": 13, "price": 83588, "description": "Lorem ipsum dolor sit amet, consectetur adipiscing elit, sed do eiusmod tempor incididunt ut labore et dolore magna aliqua. Ut enim ad minim", "title": ", sed do eiusmod tem", "image": "photo1.jpg", "color": "yellow" }, "geometry": { "type": "Point", "coordinates": [ -77.097928, 38.898607 ] } },
{ "type": "Feature", "properties": { "fid": 15, "id": 14, "price": 88799, "description": "Lorem ipsum dolor sit amet, consectetur adipiscing elit, sed do eiusmod tempor incididunt ut labore et dol", "title": "consectetur adipiscin", "image": "photo1.jpg", "color": "yellow" }, "geometry": { "type": "Point", "coordinates": [ -77.111591, 38.896837 ] } },
{ "type": "Feature", "properties": { "fid": 16, "id": 15, "price": 50003, "description": "Lorem ipsum dolor sit amet, consectetur adipiscing elit, sed do eiusmod tempor incididunt ut labore et dolo", "title": "ut labore et dolore magna al", "image": "photo1.jpg", "color": "yellow" }, "geometry": { "type": "Point", "coordinates": [ -77.106605, 38.890824 ] } },
{ "type": "Feature", "properties": { "fid": 17, "id": 16, "price": 90776, "description": "Lorem ipsum dolor sit amet, consectetur adipiscing elit, sed do eiusmod tempor incididunt ut labore e", "title": "tetur adipiscing elit, se", "image": "photo3.jpg", "color": "red" }, "geometry": { "type": "Point", "coordinates": [ -77.104128, 38.900734 ] } },
{ "type": "Feature", "properties": { "fid": 18, "id": 17, "price": 52261, "description": "Lorem ipsum dolor sit amet, consectetur adipiscing elit, sed do eiusmod tempor incididunt ut labore et dolore magna aliqua. Ut enim ad min", "title": "amet, consectetur ad", "image": "photo2.jpg", "color": "blue" }, "geometry": { "type": "Point", "coordinates": [ -77.074466, 38.895453 ] } },
{ "type": "Feature", "properties": { "fid": 19, "id": 18, "price": 60162, "description": "Lorem ipsum dolor sit amet, consectetur adipiscing elit, sed do eiusmod tempor incididunt ut labore et dolore magna aliq", "title": "do eiusmod tempor inci", "image": "photo2.jpg", "color": "yellow" }, "geometry": { "type": "Point", "coordinates": [ -77.110441, 38.896672 ] } },
{ "type": "Feature", "properties": { "fid": 20, "id": 19, "price": 50572, "description": "Lorem ipsum dolor sit amet, consectetur adipiscing elit, sed do eiusmod tempor incididunt ut labore et dolore magna aliqua. Ut enim ad minim veniam,", "title": "nsectetur adipiscing elit, ", "image": "photo2.jpg", "color": "yellow" }, "geometry": { "type": "Point", "coordinates": [ -77.11667, 38.879494 ] } },
{ "type": "Feature", "properties": { "fid": 21, "id": 20, "price": 87042, "description": "Lorem ipsum dolor sit amet, consectetur adipiscing elit, sed do eiusmod tempor incididunt ut labore et dolore magna aliqua. ", "title": " incididunt ut labore et ", "image": "photo3.jpg", "color": "red" }, "geometry": { "type": "Point", "coordinates": [ -77.08569, 38.897197 ] } },
{ "type": "Feature", "properties": { "fid": 22, "id": 21, "price": 83525, "description": "Lorem ipsum dolor sit amet, consectetur adipiscing elit, sed do eiusmod tempor incididunt ut labore et dolore magna aliqua. Ut enim ad", "title": " incididunt ut labore ", "image": "photo1.jpg", "color": "red" }, "geometry": { "type": "Point", "coordinates": [ -77.121459, 38.89639 ] } },
{ "type": "Feature", "properties": { "fid": 23, "id": 22, "price": 58615, "description": "Lorem ipsum dolor sit amet, consectetur adipiscing elit, sed do eiusmod tempor incididunt ut labore et dol", "title": "amet, consectetur adipiscing", "image": "photo2.jpg", "color": "yellow" }, "geometry": { "type": "Point", "coordinates": [ -77.091, 38.881023 ] } },
{ "type": "Feature", "properties": { "fid": 24, "id": 23, "price": 80930, "description": "Lorem ipsum dolor sit amet, consectetur adipiscing elit, sed do eiusmod tempor incididunt ut labore et dolore magna aliqua.", "title": " do eiusmod tempor inc", "image": "photo2.jpg", "color": "blue" }, "geometry": { "type": "Point", "coordinates": [ -77.123219, 38.900747 ] } },
{ "type": "Feature", "properties": { "fid": 25, "id": 24, "price": 54650, "description": "Lorem ipsum dolor sit amet, consectetur adipiscing elit, sed do eiusmod tempor incididunt ut labore et dolore magna aliqua. Ut enim ad m", "title": "mpor incididunt ut labore e", "image": "photo2.jpg", "color": "yellow" }, "geometry": { "type": "Point", "coordinates": [ -77.131072, 38.887087 ] } },
{ "type": "Feature", "properties": { "fid": 26, "id": 25, "price": 52978, "description": "Lorem ipsum dolor sit amet, consectetur adipiscing elit, sed do eiusmod tempor incididunt ut labore et d", "title": "d do eiusmod tempor incid", "image": "photo2.jpg", "color": "yellow" }, "geometry": { "type": "Point", "coordinates": [ -77.113976, 38.887435 ] } },
{ "type": "Feature", "properties": { "fid": 27, "id": 26, "price": 82428, "description": "Lorem ipsum dolor sit amet, consectetur adipiscing elit, sed do eiusmod tempor incididunt ut labore et dolore", "title": "iusmod tempor incididunt u", "image": "photo3.jpg", "color": "blue" }, "geometry": { "type": "Point", "coordinates": [ -77.074249, 38.898592 ] } },
{ "type": "Feature", "properties": { "fid": 28, "id": 27, "price": 72359, "description": "Lorem ipsum dolor sit amet, consectetur adipiscing elit, sed do eiusmod tempor incididunt ut labore e", "title": "elit, sed do eiusmod tempor", "image": "photo3.jpg", "color": "red" }, "geometry": { "type": "Point", "coordinates": [ -77.079745, 38.893151 ] } },
{ "type": "Feature", "properties": { "fid": 29, "id": 28, "price": 97626, "description": "Lorem ipsum dolor sit amet, consectetur adipiscing elit, sed do eiusmod tempor incididunt ut labore et dolore mag", "title": "o eiusmod tempor inc", "image": "photo3.jpg", "color": "blue" }, "geometry": { "type": "Point", "coordinates": [ -77.096415, 38.87717 ] } },
{ "type": "Feature", "properties": { "fid": 30, "id": 29, "price": 88181, "description": "Lorem ipsum dolor sit amet, consectetur adipiscing elit, sed do eiusmod tempor incididunt ut labore et dolore m", "title": "bore et dolore magna ", "image": "photo1.jpg", "color": "red" }, "geometry": { "type": "Point", "coordinates": [ -77.117752, 38.882353 ] } },
{ "type": "Feature", "properties": { "fid": 31, "id": 30, "price": 58786, "description": "Lorem ipsum dolor sit amet, consectetur adipiscing elit, sed do eiusmod tempor incididunt ut labore et dolore magna aliqua. Ut enim ad ", "title": " amet, consectetur adipisc", "image": "photo2.jpg", "color": "blue" }, "geometry": { "type": "Point", "coordinates": [ -77.106707, 38.880201 ] } },
{ "type": "Feature", "properties": { "fid": 32, "id": 31, "price": 88973, "description": "Lorem ipsum dolor sit amet, consectetur adipiscing elit, sed do eiusmod tempor incididunt ut labore et dolo", "title": "bore et dolore magna", "image": "photo2.jpg", "color": "blue" }, "geometry": { "type": "Point", "coordinates": [ -77.087316, 38.89547 ] } },
{ "type": "Feature", "properties": { "fid": 33, "id": 32, "price": 55379, "description": "Lorem ipsum dolor sit amet, consectetur adipiscing elit, sed do eiusmod tempor incididunt ut labore et dolore magna aliqua. Ut enim ad ", "title": "met, consectetur adipi", "image": "photo3.jpg", "color": "yellow" }, "geometry": { "type": "Point", "coordinates": [ -77.131968, 38.88437 ] } },
{ "type": "Feature", "properties": { "fid": 34, "id": 33, "price": 63243, "description": "Lorem ipsum dolor sit amet, consectetur adipiscing elit, sed do eiusmod tempor incididunt ut labore et dolore magna aliqua. Ut enim ad minim veniam", "title": " consectetur adipiscing elit, ", "image": "photo3.jpg", "color": "yellow" }, "geometry": { "type": "Point", "coordinates": [ -77.12078, 38.880289 ] } },
{ "type": "Feature", "properties": { "fid": 35, "id": 34, "price": 79791, "description": "Lorem ipsum dolor sit amet, consectetur adipiscing elit, sed do eiusmod tempor incididunt ut labore et dolore magna aliqua. Ut enim a", "title": "do eiusmod tempor incidi", "image": "photo2.jpg", "color": "blue" }, "geometry": { "type": "Point", "coordinates": [ -77.118133, 38.891158 ] } },
{ "type": "Feature", "properties": { "fid": 36, "id": 35, "price": 86921, "description": "Lorem ipsum dolor sit amet, consectetur adipiscing elit, sed do eiusmod tempor incididunt ut labore et dolore magna ali", "title": "onsectetur adipiscing", "image": "photo1.jpg", "color": "yellow" }, "geometry": { "type": "Point", "coordinates": [ -77.131594, 38.889855 ] } },
{ "type": "Feature", "properties": { "fid": 37, "id": 36, "price": 95673, "description": "Lorem ipsum dolor sit amet, consectetur adipiscing elit, sed do eiusmod tempor incididunt ut labore et dolo", "title": "tur adipiscing elit, sed do", "image": "photo3.jpg", "color": "blue" }, "geometry": { "type": "Point", "coordinates": [ -77.115351, 38.894447 ] } },
{ "type": "Feature", "properties": { "fid": 38, "id": 37, "price": 98064, "description": "Lorem ipsum dolor sit amet, consectetur adipiscing elit, sed do eiusmod tempor incididunt ut labore et dolore magna aliqua. Ut enim ad ", "title": "sectetur adipiscing e", "image": "photo2.jpg", "color": "red" }, "geometry": { "type": "Point", "coordinates": [ -77.09988, 38.892743 ] } },
{ "type": "Feature", "properties": { "fid": 39, "id": 38, "price": 82809, "description": "Lorem ipsum dolor sit amet, consectetur adipiscing elit, sed do eiusmod tempor incididunt ut labore e", "title": "olor sit amet, consecte", "image": "photo1.jpg", "color": "yellow" }, "geometry": { "type": "Point", "coordinates": [ -77.089738, 38.879148 ] } },
{ "type": "Feature", "properties": { "fid": 40, "id": 39, "price": 79494, "description": "Lorem ipsum dolor sit amet, consectetur adipiscing elit, sed do eiusmod tempor incididunt ut labore et dolore magna aliqua. Ut enim ad minim ", "title": " adipiscing elit, sed do e", "image": "photo3.jpg", "color": "yellow" }, "geometry": { "type": "Point", "coordinates": [ -77.0961, 38.885481 ] } },
{ "type": "Feature", "properties": { "fid": 41, "id": 40, "price": 83887, "description": "Lorem ipsum dolor sit amet, consectetur adipiscing elit, sed do eiusmod tempor incididunt ut labore et dol", "title": "um dolor sit amet, conse", "image": "photo3.jpg", "color": "yellow" }, "geometry": { "type": "Point", "coordinates": [ -77.126511, 38.886019 ] } },
{ "type": "Feature", "properties": { "fid": 42, "id": 41, "price": 98086, "description": "Lorem ipsum dolor sit amet, consectetur adipiscing elit, sed do eiusmod tempor incididunt ut labore et dolore magna aliqua. Ut enim ad minim v", "title": "rem ipsum dolor sit amet, con", "image": "photo3.jpg", "color": "yellow" }, "geometry": { "type": "Point", "coordinates": [ -77.117095, 38.88356 ] } },
{ "type": "Feature", "properties": { "fid": 43, "id": 42, "price": 70380, "description": "Lorem ipsum dolor sit amet, consectetur adipiscing elit, sed do eiusmod tempor incididunt ut labore et", "title": "ectetur adipiscing elit, sed d", "image": "photo2.jpg", "color": "red" }, "geometry": { "type": "Point", "coordinates": [ -77.093289, 38.880254 ] } },
{ "type": "Feature", "properties": { "fid": 44, "id": 43, "price": 77537, "description": "Lorem ipsum dolor sit amet, consectetur adipiscing elit, sed do eiusmod tempor incididunt ut labore et dolore magna aliqua. Ut e", "title": "g elit, sed do eiusmod tem", "image": "photo2.jpg", "color": "red" }, "geometry": { "type": "Point", "coordinates": [ -77.125626, 38.887674 ] } },
{ "type": "Feature", "properties": { "fid": 45, "id": 44, "price": 87243, "description": "Lorem ipsum dolor sit amet, consectetur adipiscing elit, sed do eiusmod tempor incididunt ut labore et dolore magna aliqua. Ut enim ad mi", "title": "r adipiscing elit, sed do", "image": "photo3.jpg", "color": "yellow" }, "geometry": { "type": "Point", "coordinates": [ -77.125663, 38.888426 ] } },
{ "type": "Feature", "properties": { "fid": 46, "id": 45, "price": 80125, "description": "Lorem ipsum dolor sit amet, consectetur adipiscing elit, sed do eiusmod tempor incididunt ut labore et dolore magna", "title": "etur adipiscing elit, ", "image": "photo3.jpg", "color": "blue" }, "geometry": { "type": "Point", "coordinates": [ -77.125296, 38.884791 ] } },
{ "type": "Feature", "properties": { "fid": 47, "id": 46, "price": 91996, "description": "Lorem ipsum dolor sit amet, consectetur adipiscing elit, sed do eiusmod tempor incididunt ut labore et dolore magna aliqua. Ut enim ad min", "title": "mod tempor incididunt ut ", "image": "photo3.jpg", "color": "yellow" }, "geometry": { "type": "Point", "coordinates": [ -77.113371, 38.896184 ] } },
{ "type": "Feature", "properties": { "fid": 48, "id": 47, "price": 51262, "description": "Lorem ipsum dolor sit amet, consectetur adipiscing elit, sed do eiusmod tempor incididunt ut labore et dolore magna aliqua. Ut enim ad minim veniam", "title": "consectetur adipiscin", "image": "photo1.jpg", "color": "blue" }, "geometry": { "type": "Point", "coordinates": [ -77.121445, 38.891253 ] } },
{ "type": "Feature", "properties": { "fid": 49, "id": 48, "price": 73425, "description": "Lorem ipsum dolor sit amet, consectetur adipiscing elit, sed do eiusmod tempor incididunt ut labore et dolore", "title": "dolor sit amet, consectetur a", "image": "photo2.jpg", "color": "blue" }, "geometry": { "type": "Point", "coordinates": [ -77.080034, 38.899731 ] } },
{ "type": "Feature", "properties": { "fid": 50, "id": 49, "price": 55742, "description": "Lorem ipsum dolor sit amet, consectetur adipiscing elit, sed do eiusmod tempor incididunt ut labore et dolore magna aliqua. Ut enim a", "title": "et dolore magna aliqua. Ut ", "image": "photo3.jpg", "color": "yellow" }, "geometry": { "type": "Point", "coordinates": [ -77.07082, 38.895422 ] } },
{ "type": "Feature", "properties": { "fid": 51, "id": 50, "price": 89551, "description": "Lorem ipsum dolor sit amet, consectetur adipiscing elit, sed do eiusmod tempor incididunt ut labore et d", "title": "et dolore magna aliqua. U", "image": "photo1.jpg", "color": "red" }, "geometry": { "type": "Point", "coordinates": [ -77.11056, 38.879668 ] } },
{ "type": "Feature", "properties": { "fid": 52, "id": 51, "price": 94656, "description": "Lorem ipsum dolor sit amet, consectetur adipiscing elit, sed do eiusmod tempor incididunt ut labore et dolore magna aliqua. ", "title": " labore et dolore magna a", "image": "photo3.jpg", "color": "yellow" }, "geometry": { "type": "Point", "coordinates": [ -77.122984, 38.882042 ] } },
{ "type": "Feature", "properties": { "fid": 53, "id": 52, "price": 77625, "description": "Lorem ipsum dolor sit amet, consectetur adipiscing elit, sed do eiusmod tempor incididunt ut labore et dolore magna", "title": "dipiscing elit, sed do ", "image": "photo2.jpg", "color": "blue" }, "geometry": { "type": "Point", "coordinates": [ -77.11031, 38.890188 ] } },
{ "type": "Feature", "properties": { "fid": 54, "id": 53, "price": 72872, "description": "Lorem ipsum dolor sit amet, consectetur adipiscing elit, sed do eiusmod tempor incididunt ut labore et dolore magna ", "title": "et dolore magna aliqua. ", "image": "photo2.jpg", "color": "yellow" }, "geometry": { "type": "Point", "coordinates": [ -77.094985, 38.880145 ] } },
{ "type": "Feature", "properties": { "fid": 55, "id": 54, "price": 51504, "description": "Lorem ipsum dolor sit amet, consectetur adipiscing elit, sed do eiusmod tempor incididunt ut labore et dolore magna aliqua. Ut enim ad ", "title": "scing elit, sed do eiusmod te", "image": "photo2.jpg", "color": "blue" }, "geometry": { "type": "Point", "coordinates": [ -77.095167, 38.882599 ] } },
{ "type": "Feature", "properties": { "fid": 56, "id": 55, "price": 71685, "description": "Lorem ipsum dolor sit amet, consectetur adipiscing elit, sed do eiusmod tempor incididunt ut labore et dolore magna aliqua. Ut enim ad minim veniam, q", "title": "ed do eiusmod tempor i", "image": "photo3.jpg", "color": "red" }, "geometry": { "type": "Point", "coordinates": [ -77.092563, 38.899504 ] } },
{ "type": "Feature", "properties": { "fid": 57, "id": 56, "price": 70071, "description": "Lorem ipsum dolor sit amet, consectetur adipiscing elit, sed do eiusmod tempor incididunt ut labore et dolore magna ", "title": "ectetur adipiscing elit, sed", "image": "photo2.jpg", "color": "blue" }, "geometry": { "type": "Point", "coordinates": [ -77.128211, 38.881463 ] } },
{ "type": "Feature", "properties": { "fid": 58, "id": 57, "price": 53838, "description": "Lorem ipsum dolor sit amet, consectetur adipiscing elit, sed do eiusmod tempor incididunt ut labore et dolore ma", "title": "bore et dolore magna aliqua.", "image": "photo2.jpg", "color": "yellow" }, "geometry": { "type": "Point", "coordinates": [ -77.12921, 38.889386 ] } },
{ "type": "Feature", "properties": { "fid": 59, "id": 58, "price": 80711, "description": "Lorem ipsum dolor sit amet, consectetur adipiscing elit, sed do eiusmod tempor incididunt ut labore et dolore magna aliqua. Ut enim ad minim v", "title": "usmod tempor incididunt", "image": "photo2.jpg", "color": "red" }, "geometry": { "type": "Point", "coordinates": [ -77.107205, 38.892314 ] } },
{ "type": "Feature", "properties": { "fid": 60, "id": 59, "price": 75765, "description": "Lorem ipsum dolor sit amet, consectetur adipiscing elit, sed do eiusmod tempor incididunt ut labore et dolor", "title": " dolor sit amet, consectet", "image": "photo2.jpg", "color": "yellow" }, "geometry": { "type": "Point", "coordinates": [ -77.10671, 38.880527 ] } },
{ "type": "Feature", "properties": { "fid": 61, "id": 60, "price": 72950, "description": "Lorem ipsum dolor sit amet, consectetur adipiscing elit, sed do eiusmod tempor incididunt ut labore et dolore magna", "title": "tur adipiscing elit, sed do ", "image": "photo2.jpg", "color": "yellow" }, "geometry": { "type": "Point", "coordinates": [ -77.095929, 38.885236 ] } },
{ "type": "Feature", "properties": { "fid": 62, "id": 61, "price": 52570, "description": "Lorem ipsum dolor sit amet, consectetur adipiscing elit, sed do eiusmod tempor incididunt ut labore et dolore magna aliqua. Ut enim ad minim ven", "title": "ectetur adipiscing el", "image": "photo3.jpg", "color": "blue" }, "geometry": { "type": "Point", "coordinates": [ -77.076154, 38.897947 ] } },
{ "type": "Feature", "properties": { "fid": 63, "id": 62, "price": 91212, "description": "Lorem ipsum dolor sit amet, consectetur adipiscing elit, sed do eiusmod tempor incididunt ut labore et dolore magna aliq", "title": " tempor incididunt ut lab", "image": "photo2.jpg", "color": "red" }, "geometry": { "type": "Point", "coordinates": [ -77.120561, 38.882002 ] } },
{ "type": "Feature", "properties": { "fid": 64, "id": 63, "price": 58246, "description": "Lorem ipsum dolor sit amet, consectetur adipiscing elit, sed do eiusmod tempor incididunt ut labore et dolore magna", "title": "tur adipiscing elit, s", "image": "photo2.jpg", "color": "blue" }, "geometry": { "type": "Point", "coordinates": [ -77.113404, 38.874758 ] } },
{ "type": "Feature", "properties": { "fid": 65, "id": 64, "price": 55009, "description": "Lorem ipsum dolor sit amet, consectetur adipiscing elit, sed do eiusmod tempor incididunt ut labore et dolore magna aliqua. Ut", "title": "dunt ut labore et dolore magna", "image": "photo2.jpg", "color": "blue" }, "geometry": { "type": "Point", "coordinates": [ -77.121653, 38.893142 ] } },
{ "type": "Feature", "properties": { "fid": 66, "id": 65, "price": 92455, "description": "Lorem ipsum dolor sit amet, consectetur adipiscing elit, sed do eiusmod tempor incididunt ut labore et dolore magna aliqua. Ut enim ad minim veniam", "title": " ut labore et dolore magna a", "image": "photo2.jpg", "color": "yellow" }, "geometry": { "type": "Point", "coordinates": [ -77.124951, 38.877311 ] } },
{ "type": "Feature", "properties": { "fid": 67, "id": 66, "price": 64709, "description": "Lorem ipsum dolor sit amet, consectetur adipiscing elit, sed do eiusmod tempor incididunt ut labore et dolore magna aliqua. Ut enim ad minim veniam, ", "title": "it, sed do eiusmod tempor inc", "image": "photo2.jpg", "color": "red" }, "geometry": { "type": "Point", "coordinates": [ -77.108894, 38.898414 ] } },
{ "type": "Feature", "properties": { "fid": 68, "id": 67, "price": 69070, "description": "Lorem ipsum dolor sit amet, consectetur adipiscing elit, sed do eiusmod tempor incididunt ut labore et dolore magna aliqu", "title": ", sed do eiusmod tempor in", "image": "photo3.jpg", "color": "blue" }, "geometry": { "type": "Point", "coordinates": [ -77.121165, 38.884527 ] } },
{ "type": "Feature", "properties": { "fid": 69, "id": 68, "price": 78622, "description": "Lorem ipsum dolor sit amet, consectetur adipiscing elit, sed do eiusmod tempor incididunt ut labore et dolore magna aliqua. Ut enim ad minim veniam", "title": "met, consectetur adipiscing", "image": "photo2.jpg", "color": "red" }, "geometry": { "type": "Point", "coordinates": [ -77.095229, 38.896184 ] } },
{ "type": "Feature", "properties": { "fid": 70, "id": 69, "price": 69910, "description": "Lorem ipsum dolor sit amet, consectetur adipiscing elit, sed do eiusmod tempor incididunt ut labore et dolore magna aliqua. U", "title": " incididunt ut labore et do", "image": "photo1.jpg", "color": "blue" }, "geometry": { "type": "Point", "coordinates": [ -77.097754, 38.89565 ] } },
{ "type": "Feature", "properties": { "fid": 71, "id": 70, "price": 50431, "description": "Lorem ipsum dolor sit amet, consectetur adipiscing elit, sed do eiusmod tempor incididunt ut labore et dolore magna aliqua. Ut enim ad minim veniam, q", "title": "ncididunt ut labore et d", "image": "photo3.jpg", "color": "blue" }, "geometry": { "type": "Point", "coordinates": [ -77.092026, 38.896142 ] } },
{ "type": "Feature", "properties": { "fid": 72, "id": 71, "price": 91961, "description": "Lorem ipsum dolor sit amet, consectetur adipiscing elit, sed do eiusmod tempor incididunt ut labore et dolore magna aliqua. Ut enim ad minim veniam, q", "title": "empor incididunt ut ", "image": "photo2.jpg", "color": "red" }, "geometry": { "type": "Point", "coordinates": [ -77.115226, 38.884393 ] } },
{ "type": "Feature", "properties": { "fid": 73, "id": 72, "price": 68029, "description": "Lorem ipsum dolor sit amet, consectetur adipiscing elit, sed do eiusmod tempor incididunt ut labore et dolore magna aliqua. Ut enim", "title": "iscing elit, sed do ", "image": "photo3.jpg", "color": "yellow" }, "geometry": { "type": "Point", "coordinates": [ -77.110132, 38.887723 ] } },
{ "type": "Feature", "properties": { "fid": 74, "id": 73, "price": 84546, "description": "Lorem ipsum dolor sit amet, consectetur adipiscing elit, sed do eiusmod tempor incididunt ut labore et dolor", "title": "sectetur adipiscing eli", "image": "photo2.jpg", "color": "blue" }, "geometry": { "type": "Point", "coordinates": [ -77.099673, 38.896419 ] } },
{ "type": "Feature", "properties": { "fid": 75, "id": 74, "price": 87125, "description": "Lorem ipsum dolor sit amet, consectetur adipiscing elit, sed do eiusmod tempor incididunt ut labore et dolore magna aliqua. Ut eni", "title": "incididunt ut labore et dolo", "image": "photo2.jpg", "color": "blue" }, "geometry": { "type": "Point", "coordinates": [ -77.117158, 38.884008 ] } },
{ "type": "Feature", "properties": { "fid": 76, "id": 75, "price": 85407, "description": "Lorem ipsum dolor sit amet, consectetur adipiscing elit, sed do eiusmod tempor incididunt ut labore et dolore magna aliqua. Ut enim ad minim ven", "title": "unt ut labore et dolore mag", "image": "photo3.jpg", "color": "red" }, "geometry": { "type": "Point", "coordinates": [ -77.118376, 38.88635 ] } },
{ "type": "Feature", "properties": { "fid": 77, "id": 76, "price": 81560, "description": "Lorem ipsum dolor sit amet, consectetur adipiscing elit, sed do eiusmod tempor incididunt ut labore et dolore magna aliqua", "title": "ectetur adipiscing elit, s", "image": "photo2.jpg", "color": "blue" }, "geometry": { "type": "Point", "coordinates": [ -77.106489, 38.877589 ] } },
{ "type": "Feature", "properties": { "fid": 78, "id": 77, "price": 77125, "description": "Lorem ipsum dolor sit amet, consectetur adipiscing elit, sed do eiusmod tempor incididunt ut labore et dolore magna ali", "title": "met, consectetur adip", "image": "photo1.jpg", "color": "blue" }, "geometry": { "type": "Point", "coordinates": [ -77.11007, 38.897422 ] } },
{ "type": "Feature", "properties": { "fid": 79, "id": 78, "price": 61094, "description": "Lorem ipsum dolor sit amet, consectetur adipiscing elit, sed do eiusmod tempor incididunt ut labore et dolore mag", "title": "ore et dolore magna aliqua. U", "image": "photo3.jpg", "color": "yellow" }, "geometry": { "type": "Point", "coordinates": [ -77.107209, 38.879368 ] } },
{ "type": "Feature", "properties": { "fid": 80, "id": 79, "price": 61182, "description": "Lorem ipsum dolor sit amet, consectetur adipiscing elit, sed do eiusmod tempor incididunt ut labore et dolore magna ali", "title": "lor sit amet, consec", "image": "photo2.jpg", "color": "red" }, "geometry": { "type": "Point", "coordinates": [ -77.11226, 38.896025 ] } },
{ "type": "Feature", "properties": { "fid": 81, "id": 80, "price": 58660, "description": "Lorem ipsum dolor sit amet, consectetur adipiscing elit, sed do eiusmod tempor incididunt ut labore et dolore", "title": "scing elit, sed do eiu", "image": "photo3.jpg", "color": "blue" }, "geometry": { "type": "Point", "coordinates": [ -77.001592, 38.972895 ] } },
{ "type": "Feature", "properties": { "fid": 82, "id": 81, "price": 79689, "description": "Lorem ipsum dolor sit amet, consectetur adipiscing elit, sed do eiusmod tempor incididunt ut labore ", "title": " adipiscing elit, sed do ei", "image": "photo2.jpg", "color": "yellow" }, "geometry": { "type": "Point", "coordinates": [ -77.031518, 38.927085 ] } },
{ "type": "Feature", "properties": { "fid": 83, "id": 82, "price": 95539, "description": "Lorem ipsum dolor sit amet, consectetur adipiscing elit, sed do eiusmod tempor incididunt ut labore et dolore magna aliqua. Ut enim", "title": "re et dolore magna aliqua. Ut", "image": "photo2.jpg", "color": "red" }, "geometry": { "type": "Point", "coordinates": [ -77.005842, 38.896102 ] } },
{ "type": "Feature", "properties": { "fid": 84, "id": 83, "price": 98269, "description": "Lorem ipsum dolor sit amet, consectetur adipiscing elit, sed do eiusmod tempor incididunt ut labore et dolore magna aliqua. Ut enim ad minim ve", "title": "ididunt ut labore et d", "image": "photo2.jpg", "color": "yellow" }, "geometry": { "type": "Point", "coordinates": [ -77.043564, 38.914652 ] } },
{ "type": "Feature", "properties": { "fid": 85, "id": 84, "price": 85987, "description": "Lorem ipsum dolor sit amet, consectetur adipiscing elit, sed do eiusmod tempor incididunt ut labore et dolore magna aliqua. Ut", "title": "sum dolor sit amet, c", "image": "photo1.jpg", "color": "red" }, "geometry": { "type": "Point", "coordinates": [ -76.996972, 38.881974 ] } },
{ "type": "Feature", "properties": { "fid": 86, "id": 85, "price": 89815, "description": "Lorem ipsum dolor sit amet, consectetur adipiscing elit, sed do eiusmod tempor incididunt ut labore et dolore magna aliqua. Ut enim ad minim veniam", "title": "ng elit, sed do eiusmod te", "image": "photo1.jpg", "color": "yellow" }, "geometry": { "type": "Point", "coordinates": [ -77.034181, 38.925647 ] } },
{ "type": "Feature", "properties": { "fid": 87, "id": 86, "price": 96816, "description": "Lorem ipsum dolor sit amet, consectetur adipiscing elit, sed do eiusmod tempor incididunt ut labore et dolore magna aliqua. Ut enim ad minim ve", "title": "usmod tempor incididunt ut la", "image": "photo2.jpg", "color": "blue" }, "geometry": { "type": "Point", "coordinates": [ -77.01067, 38.98227 ] } },
{ "type": "Feature", "properties": { "fid": 88, "id": 87, "price": 71196, "description": "Lorem ipsum dolor sit amet, consectetur adipiscing elit, sed do eiusmod tempor incididunt ut labore et dolore magna aliqua. Ut enim ad minim veniam,", "title": "ipsum dolor sit amet,", "image": "photo3.jpg", "color": "yellow" }, "geometry": { "type": "Point", "coordinates": [ -77.022218, 38.96623 ] } },
{ "type": "Feature", "properties": { "fid": 89, "id": 88, "price": 94854, "description": "Lorem ipsum dolor sit amet, consectetur adipiscing elit, sed do eiusmod tempor incididunt ut labore et dolore magna aliqua. Ut ", "title": "m ipsum dolor sit amet, ", "image": "photo3.jpg", "color": "yellow" }, "geometry": { "type": "Point", "coordinates": [ -77.040909, 38.896576 ] } },
{ "type": "Feature", "properties": { "fid": 90, "id": 89, "price": 67088, "description": "Lorem ipsum dolor sit amet, consectetur adipiscing elit, sed do eiusmod tempor incididunt ut labore et dolore magna aliqua. Ut enim ad minim veniam,", "title": "sit amet, consectetur adip", "image": "photo3.jpg", "color": "blue" }, "geometry": { "type": "Point", "coordinates": [ -77.00968, 38.986675 ] } },
{ "type": "Feature", "properties": { "fid": 91, "id": 90, "price": 68511, "description": "Lorem ipsum dolor sit amet, consectetur adipiscing elit, sed do eiusmod tempor incididunt ut labore et dolore magna aliqua. Ut enim ad", "title": "nsectetur adipiscing eli", "image": "photo1.jpg", "color": "red" }, "geometry": { "type": "Point", "coordinates": [ -77.017874, 38.966163 ] } },
{ "type": "Feature", "properties": { "fid": 92, "id": 91, "price": 66673, "description": "Lorem ipsum dolor sit amet, consectetur adipiscing elit, sed do eiusmod tempor incididunt ut labore et dolore magna aliqua. Ut enim ad minim ve", "title": "em ipsum dolor sit amet, co", "image": "photo3.jpg", "color": "blue" }, "geometry": { "type": "Point", "coordinates": [ -77.026624, 38.90524 ] } },
{ "type": "Feature", "properties": { "fid": 93, "id": 92, "price": 75866, "description": "Lorem ipsum dolor sit amet, consectetur adipiscing elit, sed do eiusmod tempor incididunt ut labore et dolore magna aliqua. Ut enim ad", "title": " et dolore magna aliqua. Ut en", "image": "photo2.jpg", "color": "red" }, "geometry": { "type": "Point", "coordinates": [ -76.999722, 38.990835 ] } },
{ "type": "Feature", "properties": { "fid": 94, "id": 93, "price": 74210, "description": "Lorem ipsum dolor sit amet, consectetur adipiscing elit, sed do eiusmod tempor incididunt ut labore et dolore magna a", "title": "ipsum dolor sit amet, consecte", "image": "photo2.jpg", "color": "yellow" }, "geometry": { "type": "Point", "coordinates": [ -76.980616, 38.890189 ] } },
{ "type": "Feature", "properties": { "fid": 95, "id": 94, "price": 62520, "description": "Lorem ipsum dolor sit amet, consectetur adipiscing elit, sed do eiusmod tempor incididunt ut labore et d", "title": " labore et dolore magna ", "image": "photo3.jpg", "color": "red" }, "geometry": { "type": "Point", "coordinates": [ -77.033849, 38.924848 ] } },
{ "type": "Feature", "properties": { "fid": 96, "id": 95, "price": 62592, "description": "Lorem ipsum dolor sit amet, consectetur adipiscing elit, sed do eiusmod tempor incididunt ut labore et dolore magna aliqua. Ut enim ad minim", "title": "sum dolor sit amet, conse", "image": "photo3.jpg", "color": "red" }, "geometry": { "type": "Point", "coordinates": [ -77.013327, 38.96623 ] } },
{ "type": "Feature", "properties": { "fid": 97, "id": 96, "price": 63166, "description": "Lorem ipsum dolor sit amet, consectetur adipiscing elit, sed do eiusmod tempor incididunt ut labore et dolore magna aliqua. Ut enim ad minim ve", "title": " labore et dolore mag", "image": "photo3.jpg", "color": "red" }, "geometry": { "type": "Point", "coordinates": [ -77.010562, 38.975813 ] } },
{ "type": "Feature", "properties": { "fid": 98, "id": 97, "price": 90241, "description": "Lorem ipsum dolor sit amet, consectetur adipiscing elit, sed do eiusmod tempor incididunt ut labore et dolore magna aliqua. Ut enim ", "title": "lor sit amet, consectetur ", "image": "photo1.jpg", "color": "yellow" }, "geometry": { "type": "Point", "coordinates": [ -77.014019, 38.972332 ] } },
{ "type": "Feature", "properties": { "fid": 99, "id": 98, "price": 59117, "description": "Lorem ipsum dolor sit amet, consectetur adipiscing elit, sed do eiusmod tempor incididunt ut labore et dolore magna aliqua. Ut enim ad minim venia", "title": "ore et dolore magna aliqua", "image": "photo1.jpg", "color": "red" }, "geometry": { "type": "Point", "coordinates": [ -77.024052, 38.929779 ] } },
{ "type": "Feature", "properties": { "fid": 100, "id": 99, "price": 52116, "description": "Lorem ipsum dolor sit amet, consectetur adipiscing elit, sed do eiusmod tempor incididunt ut labore et dolore magna aliqua. Ut enim ad minim venia", "title": "sectetur adipiscing elit, sed ", "image": "photo1.jpg", "color": "red" }, "geometry": { "type": "Point", "coordinates": [ -76.992992, 38.882957 ] } },
{ "type": "Feature", "properties": { "fid": 101, "id": 100, "price": 92612, "description": "Lorem ipsum dolor sit amet, consectetur adipiscing elit, sed do eiusmod tempor incididunt ut labore et dolore magna aliqua. Ut enim ad minim veniam, ", "title": "d do eiusmod tempor incidid", "image": "photo1.jpg", "color": "yellow" }, "geometry": { "type": "Point", "coordinates": [ -77.015793, 38.911368 ] } },
{ "type": "Feature", "properties": { "fid": 102, "id": 101, "price": 78020, "description": "Lorem ipsum dolor sit amet, consectetur adipiscing elit, sed do eiusmod tempor incididunt ut labore et dolore magna aliq", "title": "tetur adipiscing elit, ", "image": "photo1.jpg", "color": "red" }, "geometry": { "type": "Point", "coordinates": [ -77.02995, 38.906853 ] } },
{ "type": "Feature", "properties": { "fid": 103, "id": 102, "price": 66631, "description": "Lorem ipsum dolor sit amet, consectetur adipiscing elit, sed do eiusmod tempor incididunt ut labore et", "title": "t, consectetur adipisc", "image": "photo3.jpg", "color": "red" }, "geometry": { "type": "Point", "coordinates": [ -77.00502, 38.883288 ] } },
{ "type": "Feature", "properties": { "fid": 104, "id": 103, "price": 77821, "description": "Lorem ipsum dolor sit amet, consectetur adipiscing elit, sed do eiusmod tempor incididunt ut labore et d", "title": "incididunt ut labore et d", "image": "photo3.jpg", "color": "yellow" }, "geometry": { "type": "Point", "coordinates": [ -77.011553, 38.908355 ] } },
{ "type": "Feature", "properties": { "fid": 105, "id": 104, "price": 54249, "description": "Lorem ipsum dolor sit amet, consectetur adipiscing elit, sed do eiusmod tempor incididunt ut labore et dolore ma", "title": " do eiusmod tempor incididunt ", "image": "photo2.jpg", "color": "yellow" }, "geometry": { "type": "Point", "coordinates": [ -77.034763, 38.897342 ] } },
{ "type": "Feature", "properties": { "fid": 106, "id": 105, "price": 90238, "description": "Lorem ipsum dolor sit amet, consectetur adipiscing elit, sed do eiusmod tempor incididunt ut labore et dolore magna aliqua. Ut enim ad mi", "title": "mod tempor incididunt ut labo", "image": "photo3.jpg", "color": "blue" }, "geometry": { "type": "Point", "coordinates": [ -77.030367, 38.962779 ] } },
{ "type": "Feature", "properties": { "fid": 107, "id": 106, "price": 80699, "description": "Lorem ipsum dolor sit amet, consectetur adipiscing elit, sed do eiusmod tempor incididunt ut labore et dolore magna aliqua. Ut enim ad", "title": "t labore et dolore magna", "image": "photo3.jpg", "color": "red" }, "geometry": { "type": "Point", "coordinates": [ -77.028241, 38.890983 ] } },
{ "type": "Feature", "properties": { "fid": 108, "id": 107, "price": 91505, "description": "Lorem ipsum dolor sit amet, consectetur adipiscing elit, sed do eiusmod tempor incididunt ut labore et dolore magna a", "title": "r incididunt ut labore et dolo", "image": "photo3.jpg", "color": "red" }, "geometry": { "type": "Point", "coordinates": [ -76.98972, 38.898755 ] } },
{ "type": "Feature", "properties": { "fid": 109, "id": 108, "price": 63093, "description": "Lorem ipsum dolor sit amet, consectetur adipiscing elit, sed do eiusmod tempor incididunt ut labore et dolore magna aliqua. Ut enim ad minim veniam", "title": " do eiusmod tempor in", "image": "photo1.jpg", "color": "blue" }, "geometry": { "type": "Point", "coordinates": [ -77.010133, 38.956833 ] } },
{ "type": "Feature", "properties": { "fid": 110, "id": 109, "price": 79038, "description": "Lorem ipsum dolor sit amet, consectetur adipiscing elit, sed do eiusmod tempor incididunt ut labore e", "title": "em ipsum dolor sit amet, c", "image": "photo2.jpg", "color": "yellow" }, "geometry": { "type": "Point", "coordinates": [ -77.026367, 38.979592 ] } },
{ "type": "Feature", "properties": { "fid": 111, "id": 110, "price": 72177, "description": "Lorem ipsum dolor sit amet, consectetur adipiscing elit, sed do eiusmod tempor incididunt ut labore ", "title": "t, sed do eiusmod tempor", "image": "photo3.jpg", "color": "blue" }, "geometry": { "type": "Point", "coordinates": [ -77.029744, 38.903183 ] } },
{ "type": "Feature", "properties": { "fid": 112, "id": 111, "price": 68844, "description": "Lorem ipsum dolor sit amet, consectetur adipiscing elit, sed do eiusmod tempor incididunt ut labore et dolore magna aliqua. Ut enim ad minim", "title": "sum dolor sit amet, cons", "image": "photo2.jpg", "color": "yellow" }, "geometry": { "type": "Point", "coordinates": [ -77.023411, 38.902108 ] } },
{ "type": "Feature", "properties": { "fid": 113, "id": 112, "price": 52165, "description": "Lorem ipsum dolor sit amet, consectetur adipiscing elit, sed do eiusmod tempor incididunt ut labore et dolore magna aliqua.", "title": "t, sed do eiusmod tempor ", "image": "photo1.jpg", "color": "red" }, "geometry": { "type": "Point", "coordinates": [ -77.015676, 38.98882 ] } },
{ "type": "Feature", "properties": { "fid": 114, "id": 113, "price": 61807, "description": "Lorem ipsum dolor sit amet, consectetur adipiscing elit, sed do eiusmod tempor incididunt ut labore et dolore ma", "title": "scing elit, sed do eius", "image": "photo2.jpg", "color": "yellow" }, "geometry": { "type": "Point", "coordinates": [ -77.024712, 38.914725 ] } },
{ "type": "Feature", "properties": { "fid": 115, "id": 114, "price": 69678, "description": "Lorem ipsum dolor sit amet, consectetur adipiscing elit, sed do eiusmod tempor incididunt ut labore et dolore magna aliqua. Ut e", "title": "r incididunt ut labore et dolo", "image": "photo1.jpg", "color": "red" }, "geometry": { "type": "Point", "coordinates": [ -77.010193, 38.959951 ] } },
{ "type": "Feature", "properties": { "fid": 116, "id": 115, "price": 62875, "description": "Lorem ipsum dolor sit amet, consectetur adipiscing elit, sed do eiusmod tempor incididunt ut labore et dolore magna aliqua. Ut enim ad mi", "title": "r incididunt ut labore et dolo", "image": "photo3.jpg", "color": "yellow" }, "geometry": { "type": "Point", "coordinates": [ -77.00814, 38.957446 ] } },
{ "type": "Feature", "properties": { "fid": 117, "id": 116, "price": 52930, "description": "Lorem ipsum dolor sit amet, consectetur adipiscing elit, sed do eiusmod tempor incididunt ut labore et dolore magna aliqua. Ut enim ad minim ve", "title": "it amet, consectetur adipiscin", "image": "photo2.jpg", "color": "yellow" }, "geometry": { "type": "Point", "coordinates": [ -77.043613, 38.891398 ] } },
{ "type": "Feature", "properties": { "fid": 118, "id": 117, "price": 94989, "description": "Lorem ipsum dolor sit amet, consectetur adipiscing elit, sed do eiusmod tempor incididunt ut labore et dolore magna aliqua. Ut enim ad minim veniam, ", "title": "iscing elit, sed do eiusmod te", "image": "photo3.jpg", "color": "red" }, "geometry": { "type": "Point", "coordinates": [ -77.037821, 38.904561 ] } },
{ "type": "Feature", "properties": { "fid": 119, "id": 118, "price": 92681, "description": "Lorem ipsum dolor sit amet, consectetur adipiscing elit, sed do eiusmod tempor incididunt ut labore et dolore magna aliqua. Ut enim ad m", "title": "et dolore magna aliqu", "image": "photo1.jpg", "color": "red" }, "geometry": { "type": "Point", "coordinates": [ -77.015142, 38.892732 ] } },
{ "type": "Feature", "properties": { "fid": 120, "id": 119, "price": 59150, "description": "Lorem ipsum dolor sit amet, consectetur adipiscing elit, sed do eiusmod tempor incididunt ut labore et dolore magna aliqua", "title": "nsectetur adipiscing el", "image": "photo1.jpg", "color": "red" }, "geometry": { "type": "Point", "coordinates": [ -77.023469, 38.964087 ] } },
{ "type": "Feature", "properties": { "fid": 121, "id": 120, "price": 66433, "description": "Lorem ipsum dolor sit amet, consectetur adipiscing elit, sed do eiusmod tempor incididunt ut labore et dolore magna aliqua. Ut enim ad minim v", "title": "tempor incididunt ut labore et", "image": "photo3.jpg", "color": "red" }, "geometry": { "type": "Point", "coordinates": [ -77.035767, 38.913425 ] } },
{ "type": "Feature", "properties": { "fid": 122, "id": 121, "price": 81682, "description": "Lorem ipsum dolor sit amet, consectetur adipiscing elit, sed do eiusmod tempor incididunt ut labore et dolore magna aliqua. Ut enim ad minim veniam,", "title": "ng elit, sed do eiusmod t", "image": "photo1.jpg", "color": "yellow" }, "geometry": { "type": "Point", "coordinates": [ -77.016494, 38.943809 ] } },
{ "type": "Feature", "properties": { "fid": 123, "id": 122, "price": 98009, "description": "Lorem ipsum dolor sit amet, consectetur adipiscing elit, sed do eiusmod tempor incididunt ut labore et dolore magna aliqua. Ut enim ad min", "title": "tempor incididunt ut", "image": "photo3.jpg", "color": "blue" }, "geometry": { "type": "Point", "coordinates": [ -77.024466, 38.980692 ] } },
{ "type": "Feature", "properties": { "fid": 124, "id": 123, "price": 50156, "description": "Lorem ipsum dolor sit amet, consectetur adipiscing elit, sed do eiusmod tempor incididunt ut labore et dolore magna aliq", "title": "usmod tempor incididunt u", "image": "photo2.jpg", "color": "yellow" }, "geometry": { "type": "Point", "coordinates": [ -77.04556, 38.911375 ] } },
{ "type": "Feature", "properties": { "fid": 125, "id": 124, "price": 68496, "description": "Lorem ipsum dolor sit amet, consectetur adipiscing elit, sed do eiusmod tempor incididunt ut labore et dolore mag", "title": "mpor incididunt ut labore", "image": "photo3.jpg", "color": "yellow" }, "geometry": { "type": "Point", "coordinates": [ -77.000172, 38.988587 ] } },
{ "type": "Feature", "properties": { "fid": 126, "id": 125, "price": 72386, "description": "Lorem ipsum dolor sit amet, consectetur adipiscing elit, sed do eiusmod tempor incididunt ut labore et dolore magna aliqua. Ut enim ad minim veniam", "title": "o eiusmod tempor incididu", "image": "photo2.jpg", "color": "blue" }, "geometry": { "type": "Point", "coordinates": [ -76.99085, 38.884212 ] } },
{ "type": "Feature", "properties": { "fid": 127, "id": 126, "price": 76499, "description": "Lorem ipsum dolor sit amet, consectetur adipiscing elit, sed do eiusmod tempor incididunt ut labore et dolore magna aliqua. Ut enim ad minim ", "title": "ur adipiscing elit, sed do ", "image": "photo3.jpg", "color": "red" }, "geometry": { "type": "Point", "coordinates": [ -77.02868, 38.947713 ] } },
{ "type": "Feature", "properties": { "fid": 128, "id": 127, "price": 85545, "description": "Lorem ipsum dolor sit amet, consectetur adipiscing elit, sed do eiusmod tempor incididunt ut labore et dolore magna aliqua. Ut enim ad min", "title": "sit amet, consectetur adi", "image": "photo2.jpg", "color": "blue" }, "geometry": { "type": "Point", "coordinates": [ -77.025459, 38.90391 ] } },
{ "type": "Feature", "properties": { "fid": 129, "id": 128, "price": 63698, "description": "Lorem ipsum dolor sit amet, consectetur adipiscing elit, sed do eiusmod tempor incididunt ut labore et d", "title": "ore et dolore magna aliqu", "image": "photo1.jpg", "color": "red" }, "geometry": { "type": "Point", "coordinates": [ -77.018809, 38.912596 ] } },
{ "type": "Feature", "properties": { "fid": 130, "id": 129, "price": 91210, "description": "Lorem ipsum dolor sit amet, consectetur adipiscing elit, sed do eiusmod tempor incididunt ut labore et dolore magna aliqua", "title": "ipiscing elit, sed do eiusmod ", "image": "photo2.jpg", "color": "blue" }, "geometry": { "type": "Point", "coordinates": [ -77.018367, 38.887064 ] } },
{ "type": "Feature", "properties": { "fid": 131, "id": 130, "price": 93199, "description": "Lorem ipsum dolor sit amet, consectetur adipiscing elit, sed do eiusmod tempor incididunt ut labore et dol", "title": " adipiscing elit, sed do ", "image": "photo2.jpg", "color": "blue" }, "geometry": { "type": "Point", "coordinates": [ -77.022144, 38.95383 ] } },
{ "type": "Feature", "properties": { "fid": 132, "id": 131, "price": 57193, "description": "Lorem ipsum dolor sit amet, consectetur adipiscing elit, sed do eiusmod tempor incididunt ut labore et dolore m", "title": "m dolor sit amet, consectet", "image": "photo3.jpg", "color": "blue" }, "geometry": { "type": "Point", "coordinates": [ -77.010046, 38.905829 ] } },
{ "type": "Feature", "properties": { "fid": 133, "id": 132, "price": 78232, "description": "Lorem ipsum dolor sit amet, consectetur adipiscing elit, sed do eiusmod tempor incididunt ut labore et dol", "title": "or sit amet, consectetur", "image": "photo3.jpg", "color": "red" }, "geometry": { "type": "Point", "coordinates": [ -77.001007, 38.96266 ] } },
{ "type": "Feature", "properties": { "fid": 134, "id": 133, "price": 76784, "description": "Lorem ipsum dolor sit amet, consectetur adipiscing elit, sed do eiusmod tempor incididunt ut labore et ", "title": "consectetur adipiscing el", "image": "photo2.jpg", "color": "blue" }, "geometry": { "type": "Point", "coordinates": [ -77.034916, 38.907707 ] } },
{ "type": "Feature", "properties": { "fid": 135, "id": 134, "price": 74275, "description": "Lorem ipsum dolor sit amet, consectetur adipiscing elit, sed do eiusmod tempor incididunt ut labore et dolore magna aliqua. Ut enim ad m", "title": "incididunt ut labore et dol", "image": "photo1.jpg", "color": "yellow" }, "geometry": { "type": "Point", "coordinates": [ -77.026105, 38.938857 ] } },
{ "type": "Feature", "properties": { "fid": 136, "id": 135, "price": 95965, "description": "Lorem ipsum dolor sit amet, consectetur adipiscing elit, sed do eiusmod tempor incididunt ut labore et dolore magn", "title": "t, sed do eiusmod tempor in", "image": "photo3.jpg", "color": "yellow" }, "geometry": { "type": "Point", "coordinates": [ -76.982523, 38.890307 ] } },
{ "type": "Feature", "properties": { "fid": 137, "id": 136, "price": 87702, "description": "Lorem ipsum dolor sit amet, consectetur adipiscing elit, sed do eiusmod tempor incididunt ut labore et dolore magna aliqua", "title": "it amet, consectetur adipisc", "image": "photo1.jpg", "color": "red" }, "geometry": { "type": "Point", "coordinates": [ -77.037512, 38.926321 ] } },
{ "type": "Feature", "properties": { "fid": 138, "id": 137, "price": 79540, "description": "Lorem ipsum dolor sit amet, consectetur adipiscing elit, sed do eiusmod tempor incididunt ut labore et dolore magna aliqua. Ut enim ad minim veniam", "title": "m ipsum dolor sit amet, cons", "image": "photo3.jpg", "color": "yellow" }, "geometry": { "type": "Point", "coordinates": [ -77.019151, 38.987556 ] } },
{ "type": "Feature", "properties": { "fid": 139, "id": 138, "price": 58019, "description": "Lorem ipsum dolor sit amet, consectetur adipiscing elit, sed do eiusmod tempor incididunt ut labore et dolore magna a", "title": "tempor incididunt ut l", "image": "photo3.jpg", "color": "red" }, "geometry": { "type": "Point", "coordinates": [ -77.029925, 38.930749 ] } },
{ "type": "Feature", "properties": { "fid": 140, "id": 139, "price": 93916, "description": "Lorem ipsum dolor sit amet, consectetur adipiscing elit, sed do eiusmod tempor incididunt ut labore et dolore m", "title": " et dolore magna aliqua. Ut e", "image": "photo1.jpg", "color": "red" }, "geometry": { "type": "Point", "coordinates": [ -77.043254, 38.900322 ] } },
{ "type": "Feature", "properties": { "fid": 141, "id": 140, "price": 82069, "description": "Lorem ipsum dolor sit amet, consectetur adipiscing elit, sed do eiusmod tempor incididunt ut labore et dolore magna aliq", "title": "scing elit, sed do eiusmod te", "image": "photo1.jpg", "color": "red" }, "geometry": { "type": "Point", "coordinates": [ -77.027349, 38.924223 ] } },
{ "type": "Feature", "properties": { "fid": 142, "id": 141, "price": 71815, "description": "Lorem ipsum dolor sit amet, consectetur adipiscing elit, sed do eiusmod tempor incididunt ut labore et dolo", "title": "et dolore magna aliqua. U", "image": "photo1.jpg", "color": "yellow" }, "geometry": { "type": "Point", "coordinates": [ -77.016603, 38.915454 ] } },
{ "type": "Feature", "properties": { "fid": 143, "id": 142, "price": 51176, "description": "Lorem ipsum dolor sit amet, consectetur adipiscing elit, sed do eiusmod tempor incididunt ut labore et do", "title": "t ut labore et dolore", "image": "photo3.jpg", "color": "yellow" }, "geometry": { "type": "Point", "coordinates": [ -77.009261, 38.987887 ] } },
{ "type": "Feature", "properties": { "fid": 144, "id": 143, "price": 99708, "description": "Lorem ipsum dolor sit amet, consectetur adipiscing elit, sed do eiusmod tempor incididunt ut labore et dolore magna aliqua. Ut enim ad minim ven", "title": "psum dolor sit amet,", "image": "photo3.jpg", "color": "yellow" }, "geometry": { "type": "Point", "coordinates": [ -77.031075, 38.956812 ] } },
{ "type": "Feature", "properties": { "fid": 145, "id": 144, "price": 93877, "description": "Lorem ipsum dolor sit amet, consectetur adipiscing elit, sed do eiusmod tempor incididunt ut labore et dolore magna aliqua. Ut enim ad m", "title": "r incididunt ut labore et", "image": "photo1.jpg", "color": "blue" }, "geometry": { "type": "Point", "coordinates": [ -77.037575, 38.894334 ] } },
{ "type": "Feature", "properties": { "fid": 146, "id": 145, "price": 99197, "description": "Lorem ipsum dolor sit amet, consectetur adipiscing elit, sed do eiusmod tempor incididunt ut labore et dolore m", "title": "por incididunt ut labore et ", "image": "photo1.jpg", "color": "yellow" }, "geometry": { "type": "Point", "coordinates": [ -77.042608, 38.906283 ] } },
{ "type": "Feature", "properties": { "fid": 147, "id": 146, "price": 56763, "description": "Lorem ipsum dolor sit amet, consectetur adipiscing elit, sed do eiusmod tempor incididunt ut labore et dolore magna al", "title": "m dolor sit amet, consect", "image": "photo3.jpg", "color": "blue" }, "geometry": { "type": "Point", "coordinates": [ -77.012154, 38.946992 ] } },
{ "type": "Feature", "properties": { "fid": 148, "id": 147, "price": 94788, "description": "Lorem ipsum dolor sit amet, consectetur adipiscing elit, sed do eiusmod tempor incididunt ut labore et dolore magna al", "title": "unt ut labore et dolore magn", "image": "photo2.jpg", "color": "red" }, "geometry": { "type": "Point", "coordinates": [ -77.034049, 38.935435 ] } },
{ "type": "Feature", "properties": { "fid": 149, "id": 148, "price": 59907, "description": "Lorem ipsum dolor sit amet, consectetur adipiscing elit, sed do eiusmod tempor incididunt ut labore et dolore m", "title": "ut labore et dolore ", "image": "photo3.jpg", "color": "blue" }, "geometry": { "type": "Point", "coordinates": [ -77.045212, 38.907954 ] } },
{ "type": "Feature", "properties": { "fid": 150, "id": 149, "price": 59156, "description": "Lorem ipsum dolor sit amet, consectetur adipiscing elit, sed do eiusmod tempor incididunt ut labore et dolore magna al", "title": "sit amet, consectetu", "image": "photo1.jpg", "color": "yellow" }, "geometry": { "type": "Point", "coordinates": [ -77.031872, 38.920527 ] } },
{ "type": "Feature", "properties": { "fid": 151, "id": 150, "price": 84485, "description": "Lorem ipsum dolor sit amet, consectetur adipiscing elit, sed do eiusmod tempor incididunt ut labore et dolore magna aliqua. Ut enim ad minim ven", "title": "et, consectetur adipi", "image": "photo1.jpg", "color": "red" }, "geometry": { "type": "Point", "coordinates": [ -77.031295, 38.961976 ] } },
{ "type": "Feature", "properties": { "fid": 152, "id": 151, "price": 69267, "description": "Lorem ipsum dolor sit amet, consectetur adipiscing elit, sed do eiusmod tempor incididunt ut labore et dolore magna aliqua. Ut enim ad minim v", "title": "idunt ut labore et d", "image": "photo1.jpg", "color": "red" }, "geometry": { "type": "Point", "coordinates": [ -77.021572, 38.949276 ] } },
{ "type": "Feature", "properties": { "fid": 153, "id": 152, "price": 77358, "description": "Lorem ipsum dolor sit amet, consectetur adipiscing elit, sed do eiusmod tempor incididunt ut labore e", "title": "r sit amet, consectetur ", "image": "photo2.jpg", "color": "blue" }, "geometry": { "type": "Point", "coordinates": [ -77.022253, 38.932101 ] } },
{ "type": "Feature", "properties": { "fid": 154, "id": 153, "price": 96976, "description": "Lorem ipsum dolor sit amet, consectetur adipiscing elit, sed do eiusmod tempor incididunt ut labore et dolore magna aliqua", "title": "Lorem ipsum dolor sit amet", "image": "photo1.jpg", "color": "red" }, "geometry": { "type": "Point", "coordinates": [ -77.044297, 38.902236 ] } },
{ "type": "Feature", "properties": { "fid": 155, "id": 154, "price": 72269, "description": "Lorem ipsum dolor sit amet, consectetur adipiscing elit, sed do eiusmod tempor incididunt ut labore et dolore", "title": " incididunt ut labore e", "image": "photo2.jpg", "color": "yellow" }, "geometry": { "type": "Point", "coordinates": [ -77.034284, 38.903247 ] } },
{ "type": "Feature", "properties": { "fid": 156, "id": 155, "price": 77309, "description": "Lorem ipsum dolor sit amet, consectetur adipiscing elit, sed do eiusmod tempor incididunt ut labore et d", "title": "idunt ut labore et dolore", "image": "photo3.jpg", "color": "yellow" }, "geometry": { "type": "Point", "coordinates": [ -77.013311, 38.987837 ] } },
{ "type": "Feature", "properties": { "fid": 157, "id": 156, "price": 81893, "description": "Lorem ipsum dolor sit amet, consectetur adipiscing elit, sed do eiusmod tempor incididunt ut labore et dolore magna aliqua. Ut eni", "title": "onsectetur adipiscing elit, ", "image": "photo1.jpg", "color": "red" }, "geometry": { "type": "Point", "coordinates": [ -77.023128, 38.916533 ] } },
{ "type": "Feature", "properties": { "fid": 158, "id": 157, "price": 88407, "description": "Lorem ipsum dolor sit amet, consectetur adipiscing elit, sed do eiusmod tempor incididunt ut labore et dolore mag", "title": "labore et dolore mag", "image": "photo1.jpg", "color": "yellow" }, "geometry": { "type": "Point", "coordinates": [ -77.023821, 38.949965 ] } },
{ "type": "Feature", "properties": { "fid": 159, "id": 158, "price": 51482, "description": "Lorem ipsum dolor sit amet, consectetur adipiscing elit, sed do eiusmod tempor incididunt ut labore et dolore magna aliqua. U", "title": "or incididunt ut labore et d", "image": "photo2.jpg", "color": "blue" }, "geometry": { "type": "Point", "coordinates": [ -77.024185, 38.88679 ] } },
{ "type": "Feature", "properties": { "fid": 160, "id": 159, "price": 86432, "description": "Lorem ipsum dolor sit amet, consectetur adipiscing elit, sed do eiusmod tempor incididunt ut labore et dolore magna aliqua. Ut ", "title": "ed do eiusmod tempor i", "image": "photo2.jpg", "color": "blue" }, "geometry": { "type": "Point", "coordinates": [ -76.983404, 38.897594 ] } }
]
}
